{
"type": "FeatureCollection",
"name": "Point_Police_Station",
"crs": { "type": "name", "properties": { "name": "urn:ogc:def:crs:OGC:1.3:CRS84" } },
"features": [
{ "type": "Feature", "properties": { "Name": "Dindoshi Police Station", "type": "Police Station", "state": "Maharastra", "district": "Mumbai", "city": "Mumbai", "location_placename_gid": 1279, "location_placename_name": "Shivaji Nagar", "gid": 1, "layer_switcher": "poi_police_station", "name2": "Shivaji Nagar", "switcher": "poi_police_station" }, "geometry": { "type": "Point", "coordinates": [ 72.877312, 19.171569 ] } },
{ "type": "Feature", "properties": { "Name": "Sion Police Station", "type": "Police Station", "state": "Maharastra", "district": "Mumbai", "city": "Mumbai", "location_placename_gid": 1303, "location_placename_name": "Sion Hospital Colony", "gid": 2, "layer_switcher": "poi_police_station", "name2": "Sion Hospital Colony", "switcher": "poi_police_station" }, "geometry": { "type": "Point", "coordinates": [ 72.861748, 19.037868 ] } },
{ "type": "Feature", "properties": { "Name": "Shivaji Park Police Station", "type": "Police Station", "state": "Maharastra", "district": "Mumbai", "city": "Mumbai", "location_placename_gid": 1174, "location_placename_name": "Kelkarwadi", "gid": 3, "layer_switcher": "poi_police_station", "name2": "Kelkarwadi", "switcher": "poi_police_station" }, "geometry": { "type": "Point", "coordinates": [ 72.840468, 19.02306 ] } },
{ "type": "Feature", "properties": { "Name": "Dharavi Police Station", "type": "Police Station", "state": "Maharastra", "district": "Mumbai", "city": "Mumbai", "location_placename_gid": 1017, "location_placename_name": "Kamla Nehru Nagar", "gid": 4, "layer_switcher": "poi_police_station", "name2": "Kamla Nehru Nagar", "switcher": "poi_police_station" }, "geometry": { "type": "Point", "coordinates": [ 72.854904, 19.042069 ] } },
{ "type": "Feature", "properties": { "Name": "Parksite Police Station", "type": "Police Station", "state": "Maharastra", "district": "Mumbai", "city": "Mumbai", "location_placename_gid": 661, "location_placename_name": "Ramwadi", "gid": 5, "layer_switcher": "poi_police_station", "name2": "Ramwadi", "switcher": "poi_police_station" }, "geometry": { "type": "Point", "coordinates": [ 72.924156, 19.117538 ] } },
{ "type": "Feature", "properties": { "Name": "Mankhurd Police Station", "type": "Police Station", "state": "Maharastra", "district": "Mumbai", "city": "Mumbai", "location_placename_gid": 334, "location_placename_name": "Lallubhai Compound", "gid": 6, "layer_switcher": "poi_police_station", "name2": "Lallubhai Compound", "switcher": "poi_police_station" }, "geometry": { "type": "Point", "coordinates": [ 72.926301, 19.052789 ] } },
{ "type": "Feature", "properties": { "Name": "Govandi Police Station", "type": "Police Station", "state": "Maharastra", "district": "Mumbai", "city": "Mumbai", "location_placename_gid": 521, "location_placename_name": "Deonar Village", "gid": 7, "layer_switcher": "poi_police_station", "name2": "Deonar Village", "switcher": "poi_police_station" }, "geometry": { "type": "Point", "coordinates": [ 72.917794, 19.04824 ] } },
{ "type": "Feature", "properties": { "Name": "Kandivali Police Station", "type": "Police Station", "state": "Maharastra", "district": "Mumbai", "city": "Mumbai", "location_placename_gid": 210, "location_placename_name": "Kandivali Police Line", "gid": 8, "layer_switcher": "poi_police_station", "name2": "Kandivali Police Line", "switcher": "poi_police_station" }, "geometry": { "type": "Point", "coordinates": [ 72.850452, 19.209726 ] } },
{ "type": "Feature", "properties": { "Name": "MHB Colony Police Station", "type": "Police Station", "state": "Maharastra", "district": "Mumbai", "city": "Mumbai", "location_placename_gid": 1124, "location_placename_name": "Ashok Nagar", "gid": 9, "layer_switcher": "poi_police_station", "name2": "Ashok Nagar", "switcher": "poi_police_station" }, "geometry": { "type": "Point", "coordinates": [ 72.840419, 19.232248 ] } },
{ "type": "Feature", "properties": { "Name": "Aarey Sub Police Station", "type": "Police Station", "state": "Maharastra", "district": "Mumbai", "city": "Mumbai", "location_placename_gid": 1541, "location_placename_name": "Jay Prakash Nagar", "gid": 10, "layer_switcher": "poi_police_station", "name2": "Jay Prakash Nagar", "switcher": "poi_police_station" }, "geometry": { "type": "Point", "coordinates": [ 72.871557, 19.162814 ] } },
{ "type": "Feature", "properties": { "Name": "Nehru Nagar Police Station", "type": "Police Station", "state": "Maharastra", "district": "Mumbai", "city": "Mumbai", "location_placename_gid": 1334, "location_placename_name": "Shiv Shakti Nagar", "gid": 11, "layer_switcher": "poi_police_station", "name2": "Shiv Shakti Nagar", "switcher": "poi_police_station" }, "geometry": { "type": "Point", "coordinates": [ 72.880325, 19.058945 ] } },
{ "type": "Feature", "properties": { "Name": "Bhoiwada Police Station", "type": "Police Station", "state": "Maharastra", "district": "Mumbai", "city": "Mumbai", "location_placename_gid": 955, "location_placename_name": "Bhoiwada", "gid": 12, "layer_switcher": "poi_police_station", "name2": "Bhoiwada", "switcher": "poi_police_station" }, "geometry": { "type": "Point", "coordinates": [ 72.843998, 19.00666 ] } },
{ "type": "Feature", "properties": { "Name": "Goregaon Police Station", "type": "Police Station", "state": "Maharastra", "district": "Mumbai", "city": "Mumbai", "location_placename_gid": 405, "location_placename_name": "Mig Colony", "gid": 13, "layer_switcher": "poi_police_station", "name2": "Mig Colony", "switcher": "poi_police_station" }, "geometry": { "type": "Point", "coordinates": [ 72.845547, 19.157354 ] } },
{ "type": "Feature", "properties": { "Name": "Bandra Police Station", "type": "Police Station", "state": "Maharastra", "district": "Mumbai", "city": "Mumbai", "location_placename_gid": 635, "location_placename_name": "Santhosh Nagar", "gid": 14, "layer_switcher": "poi_police_station", "name2": "Santhosh Nagar", "switcher": "poi_police_station" }, "geometry": { "type": "Point", "coordinates": [ 72.835819, 19.055855 ] } },
{ "type": "Feature", "properties": { "Name": "MRA Marg Police Station", "type": "Police Station", "state": "Maharastra", "district": "Mumbai", "city": "Mumbai", "location_placename_gid": 1512, "location_placename_name": "Fort", "gid": 15, "layer_switcher": "poi_police_station", "name2": "Fort", "switcher": "poi_police_station" }, "geometry": { "type": "Point", "coordinates": [ 72.835241, 18.945938 ] } },
{ "type": "Feature", "properties": { "Name": "Borivali Police Station", "type": "Police Station", "state": "Maharastra", "district": "Mumbai", "city": "Mumbai", "location_placename_gid": 599, "location_placename_name": "Borivali", "gid": 16, "layer_switcher": "poi_police_station", "name2": "Borivali", "switcher": "poi_police_station" }, "geometry": { "type": "Point", "coordinates": [ 72.841403, 19.22591 ] } },
{ "type": "Feature", "properties": { "Name": "Kasturba Police Station", "type": "Police Station", "state": "Maharastra", "district": "Mumbai", "city": "Mumbai", "location_placename_gid": 1451, "location_placename_name": "Chinchpada", "gid": 17, "layer_switcher": "poi_police_station", "name2": "Chinchpada", "switcher": "poi_police_station" }, "geometry": { "type": "Point", "coordinates": [ 72.857895, 19.22814 ] } },
{ "type": "Feature", "properties": { "Name": "Kurar Police Station", "type": "Police Station", "state": "Maharastra", "district": "Mumbai", "city": "Mumbai", "location_placename_gid": 727, "location_placename_name": "Ambewadi", "gid": 18, "layer_switcher": "poi_police_station", "name2": "Ambewadi", "switcher": "poi_police_station" }, "geometry": { "type": "Point", "coordinates": [ 72.859319, 19.18552 ] } },
{ "type": "Feature", "properties": { "Name": "Cuffe Parade Police Station", "type": "Police Station", "state": "Maharastra", "district": "Mumbai", "city": "Mumbai", "location_placename_gid": 649, "location_placename_name": "Cuffe Parade", "gid": 19, "layer_switcher": "poi_police_station", "name2": "Cuffe Parade", "switcher": "poi_police_station" }, "geometry": { "type": "Point", "coordinates": [ 72.818779, 18.911914 ] } },
{ "type": "Feature", "properties": { "Name": "JJ Marg Police Station", "type": "Police Station", "state": "Maharastra", "district": "Mumbai", "city": "Mumbai", "location_placename_gid": 871, "location_placename_name": "Jj Hospital And College Campus", "gid": 20, "layer_switcher": "poi_police_station", "name2": "Jj Hospital And College Campus", "switcher": "poi_police_station" }, "geometry": { "type": "Point", "coordinates": [ 72.832244, 18.96282 ] } },
{ "type": "Feature", "properties": { "Name": "DB Marg Police Station", "type": "Police Station", "state": "Maharastra", "district": "Mumbai", "city": "Mumbai", "location_placename_gid": 1587, "location_placename_name": "Grant Road", "gid": 21, "layer_switcher": "poi_police_station", "name2": "Grant Road", "switcher": "poi_police_station" }, "geometry": { "type": "Point", "coordinates": [ 72.817039, 18.96079 ] } },
{ "type": "Feature", "properties": { "Name": "Yellow Gate Police Station", "type": "Police Station", "state": "Maharastra", "district": "Mumbai", "city": "Mumbai", "location_placename_gid": 1503, "location_placename_name": "Masjid Bandar", "gid": 22, "layer_switcher": "poi_police_station", "name2": "Masjid Bandar", "switcher": "poi_police_station" }, "geometry": { "type": "Point", "coordinates": [ 72.841358, 18.947151 ] } },
{ "type": "Feature", "properties": { "Name": "Marine Drive Police Station", "type": "Police Station", "state": "Maharastra", "district": "Mumbai", "city": "Mumbai", "location_placename_gid": 1581, "location_placename_name": "Churchgate", "gid": 23, "layer_switcher": "poi_police_station", "name2": "Churchgate", "switcher": "poi_police_station" }, "geometry": { "type": "Point", "coordinates": [ 72.824783, 18.929958 ] } },
{ "type": "Feature", "properties": { "Name": "Tardeo Police Station", "type": "Police Station", "state": "Maharastra", "district": "Mumbai", "city": "Mumbai", "location_placename_gid": 1132, "location_placename_name": "Ratan Tata Colony", "gid": 24, "layer_switcher": "poi_police_station", "name2": "Ratan Tata Colony", "switcher": "poi_police_station" }, "geometry": { "type": "Point", "coordinates": [ 72.818848, 18.978861 ] } },
{ "type": "Feature", "properties": { "Name": "Chembur Police Station", "type": "Police Station", "state": "Maharastra", "district": "Mumbai", "city": "Mumbai", "location_placename_gid": 1424, "location_placename_name": "Sindhi Society", "gid": 25, "layer_switcher": "poi_police_station", "name2": "Sindhi Society", "switcher": "poi_police_station" }, "geometry": { "type": "Point", "coordinates": [ 72.893767, 19.051556 ] } },
{ "type": "Feature", "properties": { "Name": "Chunabhatti Police Station", "type": "Police Station", "state": "Maharastra", "district": "Mumbai", "city": "Mumbai", "location_placename_gid": 1294, "location_placename_name": "Tadwadi", "gid": 26, "layer_switcher": "poi_police_station", "name2": "Tadwadi", "switcher": "poi_police_station" }, "geometry": { "type": "Point", "coordinates": [ 72.8791, 19.054719 ] } },
{ "type": "Feature", "properties": { "Name": "Tilak Nagar Police Station", "type": "Police Station", "state": "Maharastra", "district": "Mumbai", "city": "Mumbai", "location_placename_gid": 27, "location_placename_name": "Indira Nagar", "gid": 27, "layer_switcher": "poi_police_station", "name2": "Indira Nagar", "switcher": "poi_police_station" }, "geometry": { "type": "Point", "coordinates": [ 72.895889, 19.065224 ] } },
{ "type": "Feature", "properties": { "Name": "Malad Police Station", "type": "Police Station", "state": "Maharastra", "district": "Mumbai", "city": "Mumbai", "location_placename_gid": 904, "location_placename_name": "Somwari Bazar", "gid": 28, "layer_switcher": "poi_police_station", "name2": "Somwari Bazar", "switcher": "poi_police_station" }, "geometry": { "type": "Point", "coordinates": [ 72.844739, 19.183603 ] } },
{ "type": "Feature", "properties": { "Name": "Amboli Police Station", "type": "Police Station", "state": "Maharastra", "district": "Mumbai", "city": "Mumbai", "location_placename_gid": 996, "location_placename_name": "Prabhat Nagar", "gid": 29, "layer_switcher": "poi_police_station", "name2": "Prabhat Nagar", "switcher": "poi_police_station" }, "geometry": { "type": "Point", "coordinates": [ 72.848311, 19.142503 ] } },
{ "type": "Feature", "properties": { "Name": "Wadala Police Station", "type": "Police Station", "state": "Maharastra", "district": "Mumbai", "city": "Mumbai", "location_placename_gid": 1375, "location_placename_name": "Nandkarni Park", "gid": 30, "layer_switcher": "poi_police_station", "name2": "Nandkarni Park", "switcher": "poi_police_station" }, "geometry": { "type": "Point", "coordinates": [ 72.863693, 19.015272 ] } },
{ "type": "Feature", "properties": { "Name": "Mahim Police Station", "type": "Police Station", "state": "Maharastra", "district": "Mumbai", "city": "Mumbai", "location_placename_gid": 1496, "location_placename_name": "Mahim", "gid": 31, "layer_switcher": "poi_police_station", "name2": "Mahim", "switcher": "poi_police_station" }, "geometry": { "type": "Point", "coordinates": [ 72.839069, 19.0422 ] } },
{ "type": "Feature", "properties": { "Name": "Shahu Nagar Police Station", "type": "Police Station", "state": "Maharastra", "district": "Mumbai", "city": "Mumbai", "location_placename_gid": 1, "location_placename_name": "Dharavi", "gid": 32, "layer_switcher": "poi_police_station", "name2": "Dharavi", "switcher": "poi_police_station" }, "geometry": { "type": "Point", "coordinates": [ 72.852615, 19.037129 ] } },
{ "type": "Feature", "properties": { "Name": "Charkop Police Station", "type": "Police Station", "state": "Maharastra", "district": "Mumbai", "city": "Mumbai", "location_placename_gid": 465, "location_placename_name": "Sector 2 Charkop", "gid": 33, "layer_switcher": "poi_police_station", "name2": "Sector 2 Charkop", "switcher": "poi_police_station" }, "geometry": { "type": "Point", "coordinates": [ 72.820613, 19.214632 ] } },
{ "type": "Feature", "properties": { "Name": "Santacruz Police Station", "type": "Police Station", "state": "Maharastra", "district": "Mumbai", "city": "Mumbai", "location_placename_gid": 1301, "location_placename_name": "Hasmukh Nagar", "gid": 34, "layer_switcher": "poi_police_station", "name2": "Hasmukh Nagar", "switcher": "poi_police_station" }, "geometry": { "type": "Point", "coordinates": [ 72.834843, 19.084223 ] } },
{ "type": "Feature", "properties": { "Name": "Bhandup Police Station", "type": "Police Station", "state": "Maharastra", "district": "Mumbai", "city": "Mumbai", "location_placename_gid": 434, "location_placename_name": "Govind Nagar", "gid": 35, "layer_switcher": "poi_police_station", "name2": "Govind Nagar", "switcher": "poi_police_station" }, "geometry": { "type": "Point", "coordinates": [ 72.936424, 19.151262 ] } },
{ "type": "Feature", "properties": { "Name": "Varsova Police Station", "type": "Police Station", "state": "Maharastra", "district": "Mumbai", "city": "Mumbai", "location_placename_gid": 1201, "location_placename_name": "Ratan Kunj", "gid": 36, "layer_switcher": "poi_police_station", "name2": "Ratan Kunj", "switcher": "poi_police_station" }, "geometry": { "type": "Point", "coordinates": [ 72.81509, 19.137704 ] } },
{ "type": "Feature", "properties": { "Name": "Kurla Police Station", "type": "Police Station", "state": "Maharastra", "district": "Mumbai", "city": "Mumbai", "location_placename_gid": 961, "location_placename_name": "Jagruti Nagar", "gid": 37, "layer_switcher": "poi_police_station", "name2": "Jagruti Nagar", "switcher": "poi_police_station" }, "geometry": { "type": "Point", "coordinates": [ 72.876236, 19.0648 ] } },
{ "type": "Feature", "properties": { "Name": "Gorai Police Station", "type": "Police Station", "state": "Maharastra", "district": "Mumbai", "city": "Mumbai", "location_placename_gid": 728, "location_placename_name": "Gorai 2", "gid": 38, "layer_switcher": "poi_police_station", "name2": "Gorai 2", "switcher": "poi_police_station" }, "geometry": { "type": "Point", "coordinates": [ 72.782564, 19.237608 ] } },
{ "type": "Feature", "properties": { "Name": "Navghar Police Station", "type": "Police Station", "state": "Maharastra", "district": "Mumbai", "city": "Mumbai", "location_placename_gid": 296, "location_placename_name": "Hanuman Chowk", "gid": 39, "layer_switcher": "poi_police_station", "name2": "Hanuman Chowk", "switcher": "poi_police_station" }, "geometry": { "type": "Point", "coordinates": [ 72.968369, 19.169038 ] } },
{ "type": "Feature", "properties": { "Name": "LT Marg Police Station", "type": "Police Station", "state": "Maharastra", "district": "Mumbai", "city": "Mumbai", "location_placename_gid": 438, "location_placename_name": "Tak Wadi", "gid": 40, "layer_switcher": "poi_police_station", "name2": "Tak Wadi", "switcher": "poi_police_station" }, "geometry": { "type": "Point", "coordinates": [ 72.830346, 18.945336 ] } },
{ "type": "Feature", "properties": { "Name": "Antop Hill Police Station", "type": "Police Station", "state": "Maharastra", "district": "Mumbai", "city": "Mumbai", "location_placename_gid": 711, "location_placename_name": "Cgs Colony Sector 4", "gid": 41, "layer_switcher": "poi_police_station", "name2": "Cgs Colony Sector 4", "switcher": "poi_police_station" }, "geometry": { "type": "Point", "coordinates": [ 72.864815, 19.030468 ] } },
{ "type": "Feature", "properties": { "Name": "Dongri Police Station", "type": "Police Station", "state": "Maharastra", "district": "Mumbai", "city": "Mumbai", "location_placename_gid": 918, "location_placename_name": "Dongri", "gid": 42, "layer_switcher": "poi_police_station", "name2": "Dongri", "switcher": "poi_police_station" }, "geometry": { "type": "Point", "coordinates": [ 72.83902, 18.962186 ] } },
{ "type": "Feature", "properties": { "Name": "Byculla Police Station", "type": "Police Station", "state": "Maharastra", "district": "Mumbai", "city": "Mumbai", "location_placename_gid": 682, "location_placename_name": "Mustafa Bazar", "gid": 43, "layer_switcher": "poi_police_station", "name2": "Mustafa Bazar", "switcher": "poi_police_station" }, "geometry": { "type": "Point", "coordinates": [ 72.834004, 18.973606 ] } },
{ "type": "Feature", "properties": { "Name": "Dadar Police Station", "type": "Police Station", "state": "Maharastra", "district": "Mumbai", "city": "Mumbai", "location_placename_gid": 787, "location_placename_name": "Lokmanya Tilak Colony", "gid": 44, "layer_switcher": "poi_police_station", "name2": "Lokmanya Tilak Colony", "switcher": "poi_police_station" }, "geometry": { "type": "Point", "coordinates": [ 72.835431, 19.014996 ] } },
{ "type": "Feature", "properties": { "Name": "Malwani Police Station", "type": "Police Station", "state": "Maharastra", "district": "Mumbai", "city": "Mumbai", "location_placename_gid": 668, "location_placename_name": "Malvani", "gid": 45, "layer_switcher": "poi_police_station", "name2": "Malvani", "switcher": "poi_police_station" }, "geometry": { "type": "Point", "coordinates": [ 72.822098, 19.192107 ] } },
{ "type": "Feature", "properties": { "Name": "Azad Maidan Police Station", "type": "Police Station", "state": "Maharastra", "district": "Mumbai", "city": "Mumbai", "location_placename_gid": 48, "location_placename_name": "Azad Maidan", "gid": 46, "layer_switcher": "poi_police_station", "name2": "Azad Maidan", "switcher": "poi_police_station" }, "geometry": { "type": "Point", "coordinates": [ 72.83351, 18.941706 ] } },
{ "type": "Feature", "properties": { "Name": "Nagpada Police Station", "type": "Police Station", "state": "Maharastra", "district": "Mumbai", "city": "Mumbai", "location_placename_gid": 681, "location_placename_name": "Mumbai Central", "gid": 47, "layer_switcher": "poi_police_station", "name2": "Mumbai Central", "switcher": "poi_police_station" }, "geometry": { "type": "Point", "coordinates": [ 72.829575, 18.967087 ] } },
{ "type": "Feature", "properties": { "Name": "Gamdevi Police Station", "type": "Police Station", "state": "Maharastra", "district": "Mumbai", "city": "Mumbai", "location_placename_gid": 15, "location_placename_name": "Gamdevi", "gid": 48, "layer_switcher": "poi_police_station", "name2": "Gamdevi", "switcher": "poi_police_station" }, "geometry": { "type": "Point", "coordinates": [ 72.809116, 18.966757 ] } },
{ "type": "Feature", "properties": { "Name": "NM Joshi Police Station", "type": "Police Station", "state": "Maharastra", "district": "Mumbai", "city": "Mumbai", "location_placename_gid": 609, "location_placename_name": "Lower Parel", "gid": 49, "layer_switcher": "poi_police_station", "name2": "Lower Parel", "switcher": "poi_police_station" }, "geometry": { "type": "Point", "coordinates": [ 72.830948, 18.991383 ] } },
{ "type": "Feature", "properties": { "Name": "Deonar Police Station", "type": "Police Station", "state": "Maharastra", "district": "Mumbai", "city": "Mumbai", "location_placename_gid": 709, "location_placename_name": "Deonar", "gid": 50, "layer_switcher": "poi_police_station", "name2": "Deonar", "switcher": "poi_police_station" }, "geometry": { "type": "Point", "coordinates": [ 72.917442, 19.0583 ] } },
{ "type": "Feature", "properties": { "Name": "Agripada Police Station", "type": "Police Station", "state": "Maharastra", "district": "Mumbai", "city": "Mumbai", "location_placename_gid": 398, "location_placename_name": "Rto Colony", "gid": 51, "layer_switcher": "poi_police_station", "name2": "Rto Colony", "switcher": "poi_police_station" }, "geometry": { "type": "Point", "coordinates": [ 72.824207, 18.976595 ] } },
{ "type": "Feature", "properties": { "Name": "Dahisar Police Station", "type": "Police Station", "state": "Maharastra", "district": "Mumbai", "city": "Mumbai", "location_placename_gid": 475, "location_placename_name": "Yadav Nagar", "gid": 52, "layer_switcher": "poi_police_station", "name2": "Yadav Nagar", "switcher": "poi_police_station" }, "geometry": { "type": "Point", "coordinates": [ 72.864285, 19.252693 ] } },
{ "type": "Feature", "properties": { "Name": "Ghatkopar Police Station", "type": "Police Station", "state": "Maharastra", "district": "Mumbai", "city": "Mumbai", "location_placename_gid": 272, "location_placename_name": "Chirag Nagar", "gid": 53, "layer_switcher": "poi_police_station", "name2": "Chirag Nagar", "switcher": "poi_police_station" }, "geometry": { "type": "Point", "coordinates": [ 72.899796, 19.087666 ] } },
{ "type": "Feature", "properties": { "Name": "Bandra Kurla Complex Police Station", "type": "Police Station", "state": "Maharastra", "district": "Mumbai", "city": "Mumbai", "location_placename_gid": 911, "location_placename_name": "Bharam Nagar", "gid": 54, "layer_switcher": "poi_police_station", "name2": "Bharam Nagar", "switcher": "poi_police_station" }, "geometry": { "type": "Point", "coordinates": [ 72.860245, 19.06457 ] } },
{ "type": "Feature", "properties": { "Name": "Airport Police Station", "type": "Police Station", "state": "Maharastra", "district": "Mumbai", "city": "Mumbai", "location_placename_gid": 627, "location_placename_name": "Santacruz East", "gid": 55, "layer_switcher": "poi_police_station", "name2": "Santacruz East", "switcher": "poi_police_station" }, "geometry": { "type": "Point", "coordinates": [ 72.857075, 19.094629 ] } },
{ "type": "Feature", "properties": { "Name": "DN Nagar Police Station", "type": "Police Station", "state": "Maharastra", "district": "Mumbai", "city": "Mumbai", "location_placename_gid": 848, "location_placename_name": "Shiv Nagar", "gid": 56, "layer_switcher": "poi_police_station", "name2": "Shiv Nagar", "switcher": "poi_police_station" }, "geometry": { "type": "Point", "coordinates": [ 72.829764, 19.122187 ] } },
{ "type": "Feature", "properties": { "Name": "Sahar Police Station", "type": "Police Station", "state": "Maharastra", "district": "Mumbai", "city": "Mumbai", "location_placename_gid": 912, "location_placename_name": "Sahar Village", "gid": 57, "layer_switcher": "poi_police_station", "name2": "Sahar Village", "switcher": "poi_police_station" }, "geometry": { "type": "Point", "coordinates": [ 72.875252, 19.098885 ] } },
{ "type": "Feature", "properties": { "Name": "Khar Police Station", "type": "Police Station", "state": "Maharastra", "district": "Mumbai", "city": "Mumbai", "location_placename_gid": 870, "location_placename_name": "Ram Krishna Nagar", "gid": 58, "layer_switcher": "poi_police_station", "name2": "Ram Krishna Nagar", "switcher": "poi_police_station" }, "geometry": { "type": "Point", "coordinates": [ 72.837791, 19.072868 ] } },
{ "type": "Feature", "properties": { "Name": "Paidhuni Police Station", "type": "Police Station", "state": "Maharastra", "district": "Mumbai", "city": "Mumbai", "location_placename_gid": 41, "location_placename_name": "Mumbadevi Area", "gid": 59, "layer_switcher": "poi_police_station", "name2": "Mumbadevi Area", "switcher": "poi_police_station" }, "geometry": { "type": "Point", "coordinates": [ 72.832012, 18.954189 ] } },
{ "type": "Feature", "properties": { "Name": "Vanrai Police Station", "type": "Police Station", "state": "Maharastra", "district": "Mumbai", "city": "Mumbai", "location_placename_gid": 902, "location_placename_name": "Sant Rohidas Nagar", "gid": 60, "layer_switcher": "poi_police_station", "name2": "Sant Rohidas Nagar", "switcher": "poi_police_station" }, "geometry": { "type": "Point", "coordinates": [ 72.857708, 19.155806 ] } },
{ "type": "Feature", "properties": { "Name": "Samta Nagar Police Station", "type": "Police Station", "state": "Maharastra", "district": "Mumbai", "city": "Mumbai", "location_placename_gid": 694, "location_placename_name": "Samata Nagar", "gid": 61, "layer_switcher": "poi_police_station", "name2": "Samata Nagar", "switcher": "poi_police_station" }, "geometry": { "type": "Point", "coordinates": [ 72.861482, 19.199956 ] } },
{ "type": "Feature", "properties": { "Name": "Kalachowkey Police Station", "type": "Police Station", "state": "Maharastra", "district": "Mumbai", "city": "Mumbai", "location_placename_gid": 1446, "location_placename_name": "Chatai Chawl", "gid": 62, "layer_switcher": "poi_police_station", "name2": "Chatai Chawl", "switcher": "poi_police_station" }, "geometry": { "type": "Point", "coordinates": [ 72.84227, 18.987818 ] } },
{ "type": "Feature", "properties": { "Name": "Sewree Police Station", "type": "Police Station", "state": "Maharastra", "district": "Mumbai", "city": "Mumbai", "location_placename_gid": 109, "location_placename_name": "Sewri", "gid": 63, "layer_switcher": "poi_police_station", "name2": "Sewri", "switcher": "poi_police_station" }, "geometry": { "type": "Point", "coordinates": [ 72.849223, 18.977729 ] } },
{ "type": "Feature", "properties": { "Name": "Colaba Police Station", "type": "Police Station", "state": "Maharastra", "district": "Mumbai", "city": "Mumbai", "location_placename_gid": 1276, "location_placename_name": "Police Colony", "gid": 64, "layer_switcher": "poi_police_station", "name2": "Police Colony", "switcher": "poi_police_station" }, "geometry": { "type": "Point", "coordinates": [ 72.831116, 18.922348 ] } },
{ "type": "Feature", "properties": { "Name": "Worli Police Station", "type": "Police Station", "state": "Maharastra", "district": "Mumbai", "city": "Mumbai", "location_placename_gid": 1413, "location_placename_name": "Worli Shivaji Nagar", "gid": 65, "layer_switcher": "poi_police_station", "name2": "Worli Shivaji Nagar", "switcher": "poi_police_station" }, "geometry": { "type": "Point", "coordinates": [ 72.817383, 19.005187 ] } },
{ "type": "Feature", "properties": { "Name": "RAK Police Station", "type": "Police Station", "state": "Maharastra", "district": "Mumbai", "city": "Mumbai", "location_placename_gid": 1120, "location_placename_name": "Azad Nagar", "gid": 66, "layer_switcher": "poi_police_station", "name2": "Azad Nagar", "switcher": "poi_police_station" }, "geometry": { "type": "Point", "coordinates": [ 72.849816, 19.005017 ] } },
{ "type": "Feature", "properties": { "Name": "Trombay Police Station", "type": "Police Station", "state": "Maharastra", "district": "Mumbai", "city": "Mumbai", "location_placename_gid": 162, "location_placename_name": "Cheeta Camp  Sector G", "gid": 67, "layer_switcher": "poi_police_station", "name2": "Cheeta Camp  Sector G", "switcher": "poi_police_station" }, "geometry": { "type": "Point", "coordinates": [ 72.945383, 19.038263 ] } },
{ "type": "Feature", "properties": { "Name": "Kanjurmarg Police Station", "type": "Police Station", "state": "Maharastra", "district": "Mumbai", "city": "Mumbai", "location_placename_gid": 749, "location_placename_name": "Damle Colony", "gid": 68, "layer_switcher": "poi_police_station", "name2": "Damle Colony", "switcher": "poi_police_station" }, "geometry": { "type": "Point", "coordinates": [ 72.9373, 19.129711 ] } },
{ "type": "Feature", "properties": { "Name": "Malbar Hill Police Station", "type": "Police Station", "state": "Maharastra", "district": "Mumbai", "city": "Mumbai", "location_placename_gid": 1443, "location_placename_name": "Walkeshwar", "gid": 69, "layer_switcher": "poi_police_station", "name2": "Walkeshwar", "switcher": "poi_police_station" }, "geometry": { "type": "Point", "coordinates": [ 72.799095, 18.949434 ] } },
{ "type": "Feature", "properties": { "Name": "VP Road Police Station", "type": "Police Station", "state": "Maharastra", "district": "Mumbai", "city": "Mumbai", "location_placename_gid": 32, "location_placename_name": "Grand Road Area", "gid": 70, "layer_switcher": "poi_police_station", "name2": "Grand Road Area", "switcher": "poi_police_station" }, "geometry": { "type": "Point", "coordinates": [ 72.823944, 18.955713 ] } },
{ "type": "Feature", "properties": { "Name": "RCF Police Station", "type": "Police Station", "state": "Maharastra", "district": "Mumbai", "city": "Mumbai", "location_placename_gid": 326, "location_placename_name": "Azad Nagar", "gid": 71, "layer_switcher": "poi_police_station", "name2": "Azad Nagar", "switcher": "poi_police_station" }, "geometry": { "type": "Point", "coordinates": [ 72.895611, 19.036835 ] } },
{ "type": "Feature", "properties": { "Name": "Vinoba Bhave Nagar Police Station", "type": "Police Station", "state": "Maharastra", "district": "Mumbai", "city": "Mumbai", "location_placename_gid": 975, "location_placename_name": "Vinobha Bhave Nagar", "gid": 72, "layer_switcher": "poi_police_station", "name2": "Vinobha Bhave Nagar", "switcher": "poi_police_station" }, "geometry": { "type": "Point", "coordinates": [ 72.884212, 19.071739 ] } },
{ "type": "Feature", "properties": { "Name": "Pant Nagar Police Station", "type": "Police Station", "state": "Maharastra", "district": "Mumbai", "city": "Mumbai", "location_placename_gid": 795, "location_placename_name": "Savitribai Phule Nagar", "gid": 73, "layer_switcher": "poi_police_station", "name2": "Savitribai Phule Nagar", "switcher": "poi_police_station" }, "geometry": { "type": "Point", "coordinates": [ 72.916176, 19.086893 ] } },
{ "type": "Feature", "properties": { "Name": "Andheri Police Station", "type": "Police Station", "state": "Maharastra", "district": "Mumbai", "city": "Mumbai", "location_placename_gid": 1157, "location_placename_name": "Sai Baba Wadi", "gid": 74, "layer_switcher": "poi_police_station", "name2": "Sai Baba Wadi", "switcher": "poi_police_station" }, "geometry": { "type": "Point", "coordinates": [ 72.848179, 19.120243 ] } },
{ "type": "Feature", "properties": { "Name": "Kherwadi Police Station", "type": "Police Station", "state": "Maharastra", "district": "Mumbai", "city": "Mumbai", "location_placename_gid": 297, "location_placename_name": "Ambedkar Nagar", "gid": 75, "layer_switcher": "poi_police_station", "name2": "Ambedkar Nagar", "switcher": "poi_police_station" }, "geometry": { "type": "Point", "coordinates": [ 72.850357, 19.06573 ] } },
{ "type": "Feature", "properties": { "Name": "Nirmal Nagar Police Station", "type": "Police Station", "state": "Maharastra", "district": "Mumbai", "city": "Mumbai", "location_placename_gid": 634, "location_placename_name": "Khar East", "gid": 76, "layer_switcher": "poi_police_station", "name2": "Khar East", "switcher": "poi_police_station" }, "geometry": { "type": "Point", "coordinates": [ 72.844727, 19.066006 ] } },
{ "type": "Feature", "properties": { "Name": "Wadala Truck Terminal Police Station", "type": "Police Station", "state": "Maharastra", "district": "Mumbai", "city": "Mumbai", "location_placename_gid": 1579, "location_placename_name": "Antop Hill Warehousing Complex", "gid": 77, "layer_switcher": "poi_police_station", "name2": "Antop Hill Warehousing Complex", "switcher": "poi_police_station" }, "geometry": { "type": "Point", "coordinates": [ 72.875011, 19.033054 ] } },
{ "type": "Feature", "properties": { "Name": "MIDC Police Station", "type": "Police Station", "state": "Maharastra", "district": "Mumbai", "city": "Mumbai", "location_placename_gid": 231, "location_placename_name": "Chakala Industrial Area", "gid": 78, "layer_switcher": "poi_police_station", "name2": "Chakala Industrial Area", "switcher": "poi_police_station" }, "geometry": { "type": "Point", "coordinates": [ 72.868111, 19.11764 ] } },
{ "type": "Feature", "properties": { "Name": "Meghwadi Police Station", "type": "Police Station", "state": "Maharastra", "district": "Mumbai", "city": "Mumbai", "location_placename_gid": 1129, "location_placename_name": "Income Tax Colony", "gid": 79, "layer_switcher": "poi_police_station", "name2": "Income Tax Colony", "switcher": "poi_police_station" }, "geometry": { "type": "Point", "coordinates": [ 72.861023, 19.131544 ] } },
{ "type": "Feature", "properties": { "Name": "Vakola Police Station", "type": "Police Station", "state": "Maharastra", "district": "Mumbai", "city": "Mumbai", "location_placename_gid": 1164, "location_placename_name": "Anand Nagar", "gid": 80, "layer_switcher": "poi_police_station", "name2": "Anand Nagar", "switcher": "poi_police_station" }, "geometry": { "type": "Point", "coordinates": [ 72.84716, 19.080801 ] } },
{ "type": "Feature", "properties": { "Name": "Vileparle Police Station", "type": "Police Station", "state": "Maharastra", "district": "Mumbai", "city": "Mumbai", "location_placename_gid": 626, "location_placename_name": "Vile Parle East", "gid": 81, "layer_switcher": "poi_police_station", "name2": "Vile Parle East", "switcher": "poi_police_station" }, "geometry": { "type": "Point", "coordinates": [ 72.854553, 19.096216 ] } },
{ "type": "Feature", "properties": { "Name": "Oshiwara Police Station", "type": "Police Station", "state": "Maharastra", "district": "Mumbai", "city": "Mumbai", "location_placename_gid": 830, "location_placename_name": "Milat Nagar", "gid": 82, "layer_switcher": "poi_police_station", "name2": "Milat Nagar", "switcher": "poi_police_station" }, "geometry": { "type": "Point", "coordinates": [ 72.831589, 19.147545 ] } },
{ "type": "Feature", "properties": { "Name": "Jogeshwari Police Station", "type": "Police Station", "state": "Maharastra", "district": "Mumbai", "city": "Mumbai", "location_placename_gid": 1208, "location_placename_name": "Gupha Tekdi", "gid": 83, "layer_switcher": "poi_police_station", "name2": "Gupha Tekdi", "switcher": "poi_police_station" }, "geometry": { "type": "Point", "coordinates": [ 72.85434, 19.138078 ] } },
{ "type": "Feature", "properties": { "Name": "Sakinaka Police Station", "type": "Police Station", "state": "Maharastra", "district": "Mumbai", "city": "Mumbai", "location_placename_gid": 523, "location_placename_name": "Mhada Colony", "gid": 84, "layer_switcher": "poi_police_station", "name2": "Mhada Colony", "switcher": "poi_police_station" }, "geometry": { "type": "Point", "coordinates": [ 72.895721, 19.109966 ] } },
{ "type": "Feature", "properties": { "Name": "Matunga Police Station", "type": "Police Station", "state": "Maharastra", "district": "Mumbai", "city": "Mumbai", "location_placename_gid": 1303, "location_placename_name": "Sion Hospital Colony", "gid": 85, "layer_switcher": "poi_police_station", "name2": "Sion Hospital Colony", "switcher": "poi_police_station" }, "geometry": { "type": "Point", "coordinates": [ 72.857796, 19.031141 ] } },
{ "type": "Feature", "properties": { "Name": "Shivaji Nagar Police Station", "type": "Police Station", "state": "Maharastra", "district": "Mumbai", "city": "Mumbai", "location_placename_gid": 616, "location_placename_name": "Mankhurd", "gid": 86, "layer_switcher": "poi_police_station", "name2": "Mankhurd", "switcher": "poi_police_station" }, "geometry": { "type": "Point", "coordinates": [ 72.921417, 19.061201 ] } },
{ "type": "Feature", "properties": { "Name": "Bangur Nagar Police Station", "type": "Police Station", "state": "Maharastra", "district": "Mumbai", "city": "Mumbai", "location_placename_gid": 1220, "location_placename_name": "Mamletdar Wadi", "gid": 87, "layer_switcher": "poi_police_station", "name2": "Mamletdar Wadi", "switcher": "poi_police_station" }, "geometry": { "type": "Point", "coordinates": [ 72.844644, 19.183618 ] } },
{ "type": "Feature", "properties": { "Name": "Mulund Police Station", "type": "Police Station", "state": "Maharastra", "district": "Mumbai", "city": "Mumbai", "location_placename_gid": 835, "location_placename_name": "Siddharat Nagar", "gid": 88, "layer_switcher": "poi_police_station", "name2": "Siddharat Nagar", "switcher": "poi_police_station" }, "geometry": { "type": "Point", "coordinates": [ 72.951797, 19.177345 ] } },
{ "type": "Feature", "properties": { "Name": "Vikhroli Police Station", "type": "Police Station", "state": "Maharastra", "district": "Mumbai", "city": "Mumbai", "location_placename_gid": 716, "location_placename_name": "Kannamwar Nagar Ii", "gid": 89, "layer_switcher": "poi_police_station", "name2": "Kannamwar Nagar Ii", "switcher": "poi_police_station" }, "geometry": { "type": "Point", "coordinates": [ 72.938358, 19.121695 ] } },
{ "type": "Feature", "properties": { "Name": "Powai Police Station", "type": "Police Station", "state": "Maharastra", "district": "Mumbai", "city": "Mumbai", "location_placename_gid": 1330, "location_placename_name": "Rambaug", "gid": 90, "layer_switcher": "poi_police_station", "name2": "Rambaug", "switcher": "poi_police_station" }, "geometry": { "type": "Point", "coordinates": [ 72.899456, 19.119686 ] } },
{ "type": "Feature", "properties": { "Name": "Juhu Police Station", "type": "Police Station", "state": "Maharastra", "district": "Mumbai", "city": "Mumbai", "location_placename_gid": 656, "location_placename_name": "Juhu Tara", "gid": 91, "layer_switcher": "poi_police_station", "name2": "Juhu Tara", "switcher": "poi_police_station" }, "geometry": { "type": "Point", "coordinates": [ 72.832672, 19.103124 ] } }
]
}
